{
    "peoples": {
        "count": 2598,
        "data": [
            {
                "_id": "65006b1ecbb6cb4dd2a34a7c",
                "fName": "Arvilla",
                "lName": "Christiansen",
                "location": {
                    "coordinates": [
                        82.15634583315669,
                        18.035031447494156
                    ],
                    "type": "Point"
                }
            },
            {
                "_id": "65006b1dcbb6cb4dd2a2e00b",
                "fName": "Jammie",
                "lName": "Cremin",
                "location": {
                    "coordinates": [
                        82.1377864879247,
                        18.02091358644404
                    ],
                    "type": "Point"
                }
            },
            {
                "_id": "65006b1fcbb6cb4dd2a381f8",
                "fName": "Johnpaul",
                "lName": "Bernier",
                "location": {
                    "coordinates": [
                        82.13458920492164,
                        18.00526077506517
                    ],
                    "type": "Point"
                }
            },
            {
                "_id": "65006b1ecbb6cb4dd2a33586",
                "fName": "Sean",
                "lName": "Franecki-Pagac",
                "location": {
                    "coordinates": [
                        82.21095207456699,
                        17.93478595775384
                    ],
                    "type": "Point"
                }
            },
            {
                "_id": "65006b1fcbb6cb4dd2a3963c",
                "fName": "Lane",
                "lName": "Kohler",
                "location": {
                    "coordinates": [
                        82.19137368145729,
                        17.90560515853742
                    ],
                    "type": "Point"
                }
            },
            {
                "_id": "65006b1ecbb6cb4dd2a2e768",
                "fName": "Verna",
                "lName": "Funk",
                "location": {
                    "coordinates": [
                        82.04521976906545,
                        17.945532031559218
                    ],
                    "type": "Point"
                }
            },
            {
                "_id": "65006b1dcbb6cb4dd2a282d7",
                "fName": "Zula",
                "lName": "Heller",
                "location": {
                    "coordinates": [
                        82.06743941882121,
                        17.935102456518017
                    ],
                    "type": "Point"
                }
            },
            {
                "_id": "65006b1ecbb6cb4dd2a2ffbc",
                "fName": "Randy",
                "lName": "Will",
                "location": {
                    "coordinates": [
                        82.09914478595908,
                        18.031159769121835
                    ],
                    "type": "Point"
                }
            },
            {
                "_id": "65006b1dcbb6cb4dd2a286c2",
                "fName": "Haylie",
                "lName": "Hilpert",
                "location": {
                    "coordinates": [
                        81.95969585324865,
                        17.99836075169393
                    ],
                    "type": "Point"
                }
            },
            {
                "_id": "65006b1dcbb6cb4dd2a25532",
                "fName": "Daron",
                "lName": "Mayert",
                "location": {
                    "coordinates": [
                        82.03558867260831,
                        17.97268023376686
                    ],
                    "type": "Point"
                }
            },
            {
                "_id": "65006b1ecbb6cb4dd2a32af0",
                "fName": "Kimberly",
                "lName": "Larkin",
                "location": {
                    "coordinates": [
                        81.94114622530049,
                        17.974835226309093
                    ],
                    "type": "Point"
                }
            },
            {
                "_id": "65006b1ecbb6cb4dd2a36a2a",
                "fName": "Ayana",
                "lName": "Smith",
                "location": {
                    "coordinates": [
                        81.93371604135275,
                        17.890617071256564
                    ],
                    "type": "Point"
                }
            },
            {
                "_id": "65006b1dcbb6cb4dd2a27444",
                "fName": "Mikel",
                "lName": "Swaniawski",
                "location": {
                    "coordinates": [
                        81.88446003148664,
                        17.955601395089232
                    ],
                    "type": "Point"
                }
            },
            {
                "_id": "65006b1ecbb6cb4dd2a2f9b8",
                "fName": "Eulah",
                "lName": "Conn",
                "location": {
                    "coordinates": [
                        81.83041735152645,
                        17.943227154290934
                    ],
                    "type": "Point"
                }
            },
            {
                "_id": "65006b1ecbb6cb4dd2a33409",
                "fName": "Jaeden",
                "lName": "Sawayn",
                "location": {
                    "coordinates": [
                        81.85275934412496,
                        17.891788368875595
                    ],
                    "type": "Point"
                }
            },
            {
                "_id": "65006b1dcbb6cb4dd2a2b663",
                "fName": "Shakira",
                "lName": "Gleason",
                "location": {
                    "coordinates": [
                        80.61793596956089,
                        17.08560403808404
                    ],
                    "type": "Point"
                }
            },
            {
                "_id": "65006b1dcbb6cb4dd2a2595d",
                "fName": "Lisette",
                "lName": "Dach",
                "location": {
                    "coordinates": [
                        80.05983834871904,
                        16.878516742485097
                    ],
                    "type": "Point"
                }
            },
            {
                "_id": "65006b1ecbb6cb4dd2a348bc",
                "fName": "Henry",
                "lName": "Becker",
                "location": {
                    "coordinates": [
                        80.09777864605508,
                        16.860602244290206
                    ],
                    "type": "Point"
                }
            },
            {
                "_id": "65006b1ecbb6cb4dd2a31910",
                "fName": "Anibal",
                "lName": "Hermann",
                "location": {
                    "coordinates": [
                        80.07731697006925,
                        16.765240778907472
                    ],
                    "type": "Point"
                }
            },
            {
                "_id": "65006b1ecbb6cb4dd2a3339d",
                "fName": "Jammie",
                "lName": "Considine",
                "location": {
                    "coordinates": [
                        80.0810948143019,
                        16.675083007569057
                    ],
                    "type": "Point"
                }
            },
            {
                "_id": "65006b1dcbb6cb4dd2a27886",
                "fName": "Hailie",
                "lName": "Dickinson",
                "location": {
                    "coordinates": [
                        80.01846549198775,
                        16.711041453431847
                    ],
                    "type": "Point"
                }
            },
            {
                "_id": "65006b1dcbb6cb4dd2a29eaa",
                "fName": "Maryjane",
                "lName": "Zulauf",
                "location": {
                    "coordinates": [
                        79.79942473068405,
                        16.687267004331225
                    ],
                    "type": "Point"
                }
            },
            {
                "_id": "65006b1ecbb6cb4dd2a2e3f5",
                "fName": "Westley",
                "lName": "Langworth",
                "location": {
                    "coordinates": [
                        79.68342678409938,
                        16.667497578989355
                    ],
                    "type": "Point"
                }
            },
            {
                "_id": "65006b1ecbb6cb4dd2a33ec2",
                "fName": "Janice",
                "lName": "Spencer",
                "location": {
                    "coordinates": [
                        79.6805541152005,
                        16.508971471399114
                    ],
                    "type": "Point"
                }
            },
            {
                "_id": "65006b1ecbb6cb4dd2a32628",
                "fName": "Wilburn",
                "lName": "Wiza",
                "location": {
                    "coordinates": [
                        79.6707156008193,
                        16.47971234824567
                    ],
                    "type": "Point"
                }
            },
            {
                "_id": "65006b1ecbb6cb4dd2a3399a",
                "fName": "Shakira",
                "lName": "Stiedemann",
                "location": {
                    "coordinates": [
                        79.58433229792632,
                        16.51008377626499
                    ],
                    "type": "Point"
                }
            },
            {
                "_id": "65006b1ecbb6cb4dd2a33fbb",
                "fName": "Rosetta",
                "lName": "McLaughlin",
                "location": {
                    "coordinates": [
                        79.62777824703129,
                        16.603834226015778
                    ],
                    "type": "Point"
                }
            },
            {
                "_id": "65006b1ecbb6cb4dd2a32771",
                "fName": "Ladarius",
                "lName": "Weber",
                "location": {
                    "coordinates": [
                        79.58955807002994,
                        16.622386803920723
                    ],
                    "type": "Point"
                }
            },
            {
                "_id": "65006b1ecbb6cb4dd2a34215",
                "fName": "Merlin",
                "lName": "Fadel-Medhurst",
                "location": {
                    "coordinates": [
                        79.51494651215769,
                        16.50175661262523
                    ],
                    "type": "Point"
                }
            },
            {
                "_id": "65006b1dcbb6cb4dd2a2e277",
                "fName": "Zachariah",
                "lName": "Hayes",
                "location": {
                    "coordinates": [
                        79.53046944513001,
                        16.5035344898171
                    ],
                    "type": "Point"
                }
            },
            {
                "_id": "65006b1dcbb6cb4dd2a2b82e",
                "fName": "Jessika",
                "lName": "Bailey",
                "location": {
                    "coordinates": [
                        79.55407895178041,
                        16.43240170046732
                    ],
                    "type": "Point"
                }
            },
            {
                "_id": "65006b1ecbb6cb4dd2a32129",
                "fName": "Maxine",
                "lName": "Glover",
                "location": {
                    "coordinates": [
                        79.42488185786846,
                        16.399170610543685
                    ],
                    "type": "Point"
                }
            },
            {
                "_id": "65006b1ecbb6cb4dd2a3207d",
                "fName": "Lura",
                "lName": "Bogan",
                "location": {
                    "coordinates": [
                        79.43199066138533,
                        16.40512285770618
                    ],
                    "type": "Point"
                }
            },
            {
                "_id": "65006b1dcbb6cb4dd2a2c255",
                "fName": "Sanford",
                "lName": "Erdman",
                "location": {
                    "coordinates": [
                        79.44389792096955,
                        16.360322598713672
                    ],
                    "type": "Point"
                }
            },
            {
                "_id": "65006b1ecbb6cb4dd2a337a5",
                "fName": "Leilani",
                "lName": "Bashirian",
                "location": {
                    "coordinates": [
                        79.41647307057016,
                        16.30740683432061
                    ],
                    "type": "Point"
                }
            },
            {
                "_id": "65006b1ecbb6cb4dd2a339a4",
                "fName": "Destany",
                "lName": "Renner",
                "location": {
                    "coordinates": [
                        79.46295002537667,
                        16.275156746148745
                    ],
                    "type": "Point"
                }
            },
            {
                "_id": "65006b1ecbb6cb4dd2a32cde",
                "fName": "Zachariah",
                "lName": "Fahey",
                "location": {
                    "coordinates": [
                        79.55870953489506,
                        16.32184966130933
                    ],
                    "type": "Point"
                }
            },
            {
                "_id": "65006b1fcbb6cb4dd2a37cfc",
                "fName": "Ollie",
                "lName": "Wuckert-Hagenes",
                "location": {
                    "coordinates": [
                        79.56489619302577,
                        16.308555556634044
                    ],
                    "type": "Point"
                }
            },
            {
                "_id": "65006b1ecbb6cb4dd2a32059",
                "fName": "Jabari",
                "lName": "Kemmer",
                "location": {
                    "coordinates": [
                        79.57431404058053,
                        16.32841634687318
                    ],
                    "type": "Point"
                }
            },
            {
                "_id": "65006b1dcbb6cb4dd2a27de6",
                "fName": "Leland",
                "lName": "Hessel",
                "location": {
                    "coordinates": [
                        79.5926423960198,
                        16.37431581765545
                    ],
                    "type": "Point"
                }
            },
            {
                "_id": "65006b1dcbb6cb4dd2a2e2fb",
                "fName": "Alicia",
                "lName": "Kub",
                "location": {
                    "coordinates": [
                        79.56783271420923,
                        16.399188254425876
                    ],
                    "type": "Point"
                }
            },
            {
                "_id": "65006b1ecbb6cb4dd2a30029",
                "fName": "Vita",
                "lName": "McKenzie",
                "location": {
                    "coordinates": [
                        79.56151038095315,
                        16.439915454441802
                    ],
                    "type": "Point"
                }
            },
            {
                "_id": "65006b1ecbb6cb4dd2a36505",
                "fName": "Lavon",
                "lName": "Murray",
                "location": {
                    "coordinates": [
                        79.69387693494879,
                        16.386910924651144
                    ],
                    "type": "Point"
                }
            },
            {
                "_id": "65006b1dcbb6cb4dd2a25cc4",
                "fName": "Matilde",
                "lName": "Ward",
                "location": {
                    "coordinates": [
                        79.67304106098385,
                        16.41741209237741
                    ],
                    "type": "Point"
                }
            },
            {
                "_id": "65006b1dcbb6cb4dd2a29a51",
                "fName": "Hailey",
                "lName": "Christiansen",
                "location": {
                    "coordinates": [
                        79.66514750868406,
                        16.284923260240163
                    ],
                    "type": "Point"
                }
            },
            {
                "_id": "65006b1dcbb6cb4dd2a28ba3",
                "fName": "Arely",
                "lName": "Roberts-Gerlach",
                "location": {
                    "coordinates": [
                        79.75385102704337,
                        16.28825863725489
                    ],
                    "type": "Point"
                }
            },
            {
                "_id": "65006b1dcbb6cb4dd2a2668c",
                "fName": "Marjorie",
                "lName": "Runte",
                "location": {
                    "coordinates": [
                        79.81386742157841,
                        16.30518731733332
                    ],
                    "type": "Point"
                }
            },
            {
                "_id": "65006b1ecbb6cb4dd2a31d62",
                "fName": "Amparo",
                "lName": "Zemlak",
                "location": {
                    "coordinates": [
                        79.91818578935595,
                        16.31234370506933
                    ],
                    "type": "Point"
                }
            },
            {
                "_id": "65006b1ecbb6cb4dd2a3046d",
                "fName": "Lily",
                "lName": "Dickinson",
                "location": {
                    "coordinates": [
                        79.9106773554157,
                        16.314456624451644
                    ],
                    "type": "Point"
                }
            },
            {
                "_id": "65006b1ecbb6cb4dd2a34b9c",
                "fName": "Gerhard",
                "lName": "Boyer",
                "location": {
                    "coordinates": [
                        79.83760619756848,
                        16.37460501881359
                    ],
                    "type": "Point"
                }
            },
            {
                "_id": "65006b1dcbb6cb4dd2a2b944",
                "fName": "Nels",
                "lName": "Aufderhar",
                "location": {
                    "coordinates": [
                        79.75231784870378,
                        16.649755619977213
                    ],
                    "type": "Point"
                }
            },
            {
                "_id": "65006b1dcbb6cb4dd2a25cd6",
                "fName": "Filiberto",
                "lName": "Goodwin",
                "location": {
                    "coordinates": [
                        79.80953363781582,
                        16.64502907107566
                    ],
                    "type": "Point"
                }
            },
            {
                "_id": "65006b1dcbb6cb4dd2a2a81b",
                "fName": "Watson",
                "lName": "Batz",
                "location": {
                    "coordinates": [
                        79.83805387139823,
                        16.589601811773335
                    ],
                    "type": "Point"
                }
            },
            {
                "_id": "65006b1ecbb6cb4dd2a32f8b",
                "fName": "Deangelo",
                "lName": "Rau-Borer",
                "location": {
                    "coordinates": [
                        79.92270403447195,
                        16.519685118382142
                    ],
                    "type": "Point"
                }
            },
            {
                "_id": "65006b1dcbb6cb4dd2a2cb14",
                "fName": "Johann",
                "lName": "Batz",
                "location": {
                    "coordinates": [
                        79.93245110521731,
                        16.51149120298112
                    ],
                    "type": "Point"
                }
            },
            {
                "_id": "65006b1ecbb6cb4dd2a30c7e",
                "fName": "Markus",
                "lName": "Gleason",
                "location": {
                    "coordinates": [
                        79.92433868534123,
                        16.594072852271076
                    ],
                    "type": "Point"
                }
            },
            {
                "_id": "65006b1ecbb6cb4dd2a35de8",
                "fName": "Elmira",
                "lName": "Harber",
                "location": {
                    "coordinates": [
                        79.97442467990652,
                        16.645167582580747
                    ],
                    "type": "Point"
                }
            },
            {
                "_id": "65006b1ecbb6cb4dd2a34814",
                "fName": "Courtney",
                "lName": "Labadie",
                "location": {
                    "coordinates": [
                        80.0377739297369,
                        16.599922210397438
                    ],
                    "type": "Point"
                }
            },
            {
                "_id": "65006b1dcbb6cb4dd2a2bafc",
                "fName": "Madelynn",
                "lName": "Jacobson",
                "location": {
                    "coordinates": [
                        80.02780106027627,
                        16.65901058492703
                    ],
                    "type": "Point"
                }
            },
            {
                "_id": "65006b1ecbb6cb4dd2a34144",
                "fName": "Theo",
                "lName": "Reinger",
                "location": {
                    "coordinates": [
                        80.02780914592026,
                        16.651711529445784
                    ],
                    "type": "Point"
                }
            },
            {
                "_id": "65006b1dcbb6cb4dd2a2d7df",
                "fName": "Elza",
                "lName": "Kautzer",
                "location": {
                    "coordinates": [
                        80.03613635950971,
                        16.543875541976952
                    ],
                    "type": "Point"
                }
            },
            {
                "_id": "65006b1ecbb6cb4dd2a3579c",
                "fName": "Sibyl",
                "lName": "Schinner",
                "location": {
                    "coordinates": [
                        80.09543409052921,
                        16.519988665591086
                    ],
                    "type": "Point"
                }
            },
            {
                "_id": "65006b1ecbb6cb4dd2a347a4",
                "fName": "Kara",
                "lName": "Armstrong-Cole",
                "location": {
                    "coordinates": [
                        80.04809284014878,
                        16.412197343436716
                    ],
                    "type": "Point"
                }
            },
            {
                "_id": "65006b1ecbb6cb4dd2a2f8af",
                "fName": "Zella",
                "lName": "Boyer",
                "location": {
                    "coordinates": [
                        80.0519534194213,
                        16.47940796681388
                    ],
                    "type": "Point"
                }
            },
            {
                "_id": "65006b1fcbb6cb4dd2a3905b",
                "fName": "Ervin",
                "lName": "Crooks",
                "location": {
                    "coordinates": [
                        79.93021926348679,
                        16.44984474541984
                    ],
                    "type": "Point"
                }
            },
            {
                "_id": "65006b1dcbb6cb4dd2a2c281",
                "fName": "Marquise",
                "lName": "Schowalter",
                "location": {
                    "coordinates": [
                        79.92027797803107,
                        16.355657412428464
                    ],
                    "type": "Point"
                }
            },
            {
                "_id": "65006b1fcbb6cb4dd2a37f77",
                "fName": "Santos",
                "lName": "Rutherford",
                "location": {
                    "coordinates": [
                        80.1264786610136,
                        16.374458991521465
                    ],
                    "type": "Point"
                }
            },
            {
                "_id": "65006b1dcbb6cb4dd2a26557",
                "fName": "Leanna",
                "lName": "Vandervort",
                "location": {
                    "coordinates": [
                        80.11054102510613,
                        16.415566441567485
                    ],
                    "type": "Point"
                }
            },
            {
                "_id": "65006b1dcbb6cb4dd2a28eeb",
                "fName": "Emmett",
                "lName": "Nolan",
                "location": {
                    "coordinates": [
                        80.10632287884759,
                        16.43133425419937
                    ],
                    "type": "Point"
                }
            },
            {
                "_id": "65006b1ecbb6cb4dd2a30bdd",
                "fName": "Samson",
                "lName": "Kassulke",
                "location": {
                    "coordinates": [
                        80.15276265591208,
                        16.487575338408725
                    ],
                    "type": "Point"
                }
            },
            {
                "_id": "65006b1fcbb6cb4dd2a3a0e9",
                "fName": "Litzy",
                "lName": "Becker",
                "location": {
                    "coordinates": [
                        80.22435603444619,
                        16.470847123830296
                    ],
                    "type": "Point"
                }
            },
            {
                "_id": "65006b1dcbb6cb4dd2a26ae6",
                "fName": "Luther",
                "lName": "Haag",
                "location": {
                    "coordinates": [
                        80.2670468050594,
                        16.324766382037907
                    ],
                    "type": "Point"
                }
            },
            {
                "_id": "65006b1dcbb6cb4dd2a2a7a6",
                "fName": "Jo",
                "lName": "Blanda",
                "location": {
                    "coordinates": [
                        80.31744636797332,
                        16.346470106916733
                    ],
                    "type": "Point"
                }
            },
            {
                "_id": "65006b1dcbb6cb4dd2a284fa",
                "fName": "Ole",
                "lName": "Kirlin",
                "location": {
                    "coordinates": [
                        80.2792174303376,
                        16.38061280410262
                    ],
                    "type": "Point"
                }
            },
            {
                "_id": "65006b1dcbb6cb4dd2a2ba72",
                "fName": "Lindsey",
                "lName": "White",
                "location": {
                    "coordinates": [
                        80.33077960707779,
                        16.31400162345517
                    ],
                    "type": "Point"
                }
            },
            {
                "_id": "65006b1ecbb6cb4dd2a33545",
                "fName": "Lulu",
                "lName": "Larson",
                "location": {
                    "coordinates": [
                        80.40366147867749,
                        16.344914322670967
                    ],
                    "type": "Point"
                }
            },
            {
                "_id": "65006b1fcbb6cb4dd2a39cf9",
                "fName": "Henry",
                "lName": "Kirlin",
                "location": {
                    "coordinates": [
                        80.39738568935176,
                        16.32147466764971
                    ],
                    "type": "Point"
                }
            },
            {
                "_id": "65006b1ecbb6cb4dd2a2ffaf",
                "fName": "Keshaun",
                "lName": "Runolfsdottir",
                "location": {
                    "coordinates": [
                        80.42184917524548,
                        16.320840962630726
                    ],
                    "type": "Point"
                }
            },
            {
                "_id": "65006b1dcbb6cb4dd2a2dec1",
                "fName": "Dudley",
                "lName": "Wuckert",
                "location": {
                    "coordinates": [
                        80.34391913460888,
                        16.45558259551963
                    ],
                    "type": "Point"
                }
            },
            {
                "_id": "65006b1dcbb6cb4dd2a28a7e",
                "fName": "Benedict",
                "lName": "Reichert",
                "location": {
                    "coordinates": [
                        80.2859694598317,
                        16.50466855556553
                    ],
                    "type": "Point"
                }
            },
            {
                "_id": "65006b1dcbb6cb4dd2a2ab4e",
                "fName": "Verna",
                "lName": "Runolfsdottir",
                "location": {
                    "coordinates": [
                        80.34375494147987,
                        16.514346277011057
                    ],
                    "type": "Point"
                }
            },
            {
                "_id": "65006b1dcbb6cb4dd2a28777",
                "fName": "Clare",
                "lName": "Abernathy",
                "location": {
                    "coordinates": [
                        80.45287410882385,
                        16.509308675432216
                    ],
                    "type": "Point"
                }
            },
            {
                "_id": "65006b1dcbb6cb4dd2a2abb6",
                "fName": "Fred",
                "lName": "Jaskolski",
                "location": {
                    "coordinates": [
                        80.33760508156688,
                        16.677875011867556
                    ],
                    "type": "Point"
                }
            },
            {
                "_id": "65006b1dcbb6cb4dd2a2651d",
                "fName": "Aida",
                "lName": "Durgan",
                "location": {
                    "coordinates": [
                        80.36403252522335,
                        16.64568213170496
                    ],
                    "type": "Point"
                }
            },
            {
                "_id": "65006b1ecbb6cb4dd2a326c4",
                "fName": "Omari",
                "lName": "Fay",
                "location": {
                    "coordinates": [
                        80.27993820666542,
                        16.655136903018153
                    ],
                    "type": "Point"
                }
            },
            {
                "_id": "65006b1ecbb6cb4dd2a2eb95",
                "fName": "Barrett",
                "lName": "Rogahn",
                "location": {
                    "coordinates": [
                        80.21670698846665,
                        16.65465362826727
                    ],
                    "type": "Point"
                }
            },
            {
                "_id": "65006b1ecbb6cb4dd2a36444",
                "fName": "Aimee",
                "lName": "Hyatt-Pfeffer",
                "location": {
                    "coordinates": [
                        80.19516515632242,
                        16.616777142747594
                    ],
                    "type": "Point"
                }
            },
            {
                "_id": "65006b1ecbb6cb4dd2a36cc4",
                "fName": "Karen",
                "lName": "Nienow",
                "location": {
                    "coordinates": [
                        80.26377619655662,
                        16.56956050249571
                    ],
                    "type": "Point"
                }
            },
            {
                "_id": "65006b1ecbb6cb4dd2a2e626",
                "fName": "Danny",
                "lName": "Goldner",
                "location": {
                    "coordinates": [
                        80.27592997087669,
                        16.54927535106207
                    ],
                    "type": "Point"
                }
            },
            {
                "_id": "65006b1ecbb6cb4dd2a345c8",
                "fName": "Cornelius",
                "lName": "McDermott",
                "location": {
                    "coordinates": [
                        80.25498202316828,
                        16.529062478690506
                    ],
                    "type": "Point"
                }
            },
            {
                "_id": "65006b1ecbb6cb4dd2a324c9",
                "fName": "Ahmed",
                "lName": "MacGyver",
                "location": {
                    "coordinates": [
                        80.19790522628246,
                        16.585566710363086
                    ],
                    "type": "Point"
                }
            },
            {
                "_id": "65006b1ecbb6cb4dd2a30c64",
                "fName": "Maegan",
                "lName": "Hand",
                "location": {
                    "coordinates": [
                        80.11535244996952,
                        16.543644212259736
                    ],
                    "type": "Point"
                }
            },
            {
                "_id": "65006b1ecbb6cb4dd2a2ebb7",
                "fName": "Tabitha",
                "lName": "Tremblay-Jerde",
                "location": {
                    "coordinates": [
                        80.1357672288901,
                        16.58076822166691
                    ],
                    "type": "Point"
                }
            },
            {
                "_id": "65006b1ecbb6cb4dd2a35dbb",
                "fName": "Cornell",
                "lName": "Sauer",
                "location": {
                    "coordinates": [
                        80.12190543044221,
                        16.58533675892376
                    ],
                    "type": "Point"
                }
            },
            {
                "_id": "65006b1ecbb6cb4dd2a2e951",
                "fName": "Hassie",
                "lName": "Conroy",
                "location": {
                    "coordinates": [
                        80.13764465711029,
                        16.70837788060027
                    ],
                    "type": "Point"
                }
            },
            {
                "_id": "65006b1dcbb6cb4dd2a2c55e",
                "fName": "Addison",
                "lName": "Rutherford",
                "location": {
                    "coordinates": [
                        80.18026317051643,
                        16.76591643734478
                    ],
                    "type": "Point"
                }
            },
            {
                "_id": "65006b1ecbb6cb4dd2a31786",
                "fName": "Guillermo",
                "lName": "MacGyver",
                "location": {
                    "coordinates": [
                        80.18209031732106,
                        16.737927853863173
                    ],
                    "type": "Point"
                }
            },
            {
                "_id": "65006b1ecbb6cb4dd2a32cd6",
                "fName": "Otha",
                "lName": "Spinka",
                "location": {
                    "coordinates": [
                        80.27362513069795,
                        16.71549997792287
                    ],
                    "type": "Point"
                }
            },
            {
                "_id": "65006b1dcbb6cb4dd2a2b464",
                "fName": "Lyla",
                "lName": "Stiedemann",
                "location": {
                    "coordinates": [
                        80.2103195333939,
                        16.764851588313554
                    ],
                    "type": "Point"
                }
            },
            {
                "_id": "65006b1dcbb6cb4dd2a2cc14",
                "fName": "Arturo",
                "lName": "Beatty",
                "location": {
                    "coordinates": [
                        80.12675844191409,
                        16.77184154021665
                    ],
                    "type": "Point"
                }
            },
            {
                "_id": "65006b1dcbb6cb4dd2a26d89",
                "fName": "Jasmin",
                "lName": "Schoen",
                "location": {
                    "coordinates": [
                        80.13793513491942,
                        16.832102655365468
                    ],
                    "type": "Point"
                }
            },
            {
                "_id": "65006b1dcbb6cb4dd2a2b37b",
                "fName": "Sadye",
                "lName": "Dibbert",
                "location": {
                    "coordinates": [
                        80.100093788529,
                        16.85076287514945
                    ],
                    "type": "Point"
                }
            },
            {
                "_id": "65006b1dcbb6cb4dd2a29834",
                "fName": "Anibal",
                "lName": "Harber",
                "location": {
                    "coordinates": [
                        80.1593126747378,
                        16.934015436843445
                    ],
                    "type": "Point"
                }
            },
            {
                "_id": "65006b1dcbb6cb4dd2a2926b",
                "fName": "Ole",
                "lName": "Shields",
                "location": {
                    "coordinates": [
                        80.10066389557691,
                        16.990764453336343
                    ],
                    "type": "Point"
                }
            },
            {
                "_id": "65006b1dcbb6cb4dd2a25792",
                "fName": "Ludwig",
                "lName": "Kilback",
                "location": {
                    "coordinates": [
                        80.22920217087149,
                        16.9751757888649
                    ],
                    "type": "Point"
                }
            },
            {
                "_id": "65006b1ecbb6cb4dd2a32ab9",
                "fName": "Tyshawn",
                "lName": "Effertz",
                "location": {
                    "coordinates": [
                        80.22490897592566,
                        17.02299060865853
                    ],
                    "type": "Point"
                }
            },
            {
                "_id": "65006b1fcbb6cb4dd2a38cc5",
                "fName": "Melissa",
                "lName": "Funk",
                "location": {
                    "coordinates": [
                        80.23988688580323,
                        16.888351036006995
                    ],
                    "type": "Point"
                }
            },
            {
                "_id": "65006b1fcbb6cb4dd2a37b80",
                "fName": "Ana",
                "lName": "Franey-Buckridge",
                "location": {
                    "coordinates": [
                        80.33781178979014,
                        16.87812153508503
                    ],
                    "type": "Point"
                }
            },
            {
                "_id": "65006b1ecbb6cb4dd2a374b6",
                "fName": "Diamond",
                "lName": "Larkin-Lowe",
                "location": {
                    "coordinates": [
                        80.29967921511586,
                        16.927262978285455
                    ],
                    "type": "Point"
                }
            },
            {
                "_id": "65006b1dcbb6cb4dd2a2c18b",
                "fName": "Ophelia",
                "lName": "Ullrich",
                "location": {
                    "coordinates": [
                        80.37382587536081,
                        16.978544804662704
                    ],
                    "type": "Point"
                }
            },
            {
                "_id": "65006b1ecbb6cb4dd2a36728",
                "fName": "Kattie",
                "lName": "Kiehn",
                "location": {
                    "coordinates": [
                        80.39362766384544,
                        16.999634170409365
                    ],
                    "type": "Point"
                }
            },
            {
                "_id": "65006b1ecbb6cb4dd2a3205b",
                "fName": "Grover",
                "lName": "Heaney",
                "location": {
                    "coordinates": [
                        80.37541492603599,
                        16.796971367000175
                    ],
                    "type": "Point"
                }
            },
            {
                "_id": "65006b1ecbb6cb4dd2a347d5",
                "fName": "Eleanore",
                "lName": "Schmeler",
                "location": {
                    "coordinates": [
                        80.31721485032105,
                        16.863987059131162
                    ],
                    "type": "Point"
                }
            },
            {
                "_id": "65006b1fcbb6cb4dd2a38081",
                "fName": "Arianna",
                "lName": "Herman",
                "location": {
                    "coordinates": [
                        80.36067562575737,
                        16.796497756961625
                    ],
                    "type": "Point"
                }
            },
            {
                "_id": "65006b1dcbb6cb4dd2a2932b",
                "fName": "Ressie",
                "lName": "Dare",
                "location": {
                    "coordinates": [
                        80.33459444524578,
                        16.741847906861096
                    ],
                    "type": "Point"
                }
            },
            {
                "_id": "65006b1dcbb6cb4dd2a26b96",
                "fName": "Carlie",
                "lName": "Swift",
                "location": {
                    "coordinates": [
                        80.29430950798006,
                        16.713257186651116
                    ],
                    "type": "Point"
                }
            },
            {
                "_id": "65006b1dcbb6cb4dd2a26e89",
                "fName": "Coby",
                "lName": "Pollich",
                "location": {
                    "coordinates": [
                        80.33050742818095,
                        16.721674755748154
                    ],
                    "type": "Point"
                }
            },
            {
                "_id": "65006b1ecbb6cb4dd2a30370",
                "fName": "Gustave",
                "lName": "Jacobson",
                "location": {
                    "coordinates": [
                        80.3807345003026,
                        16.774156077503147
                    ],
                    "type": "Point"
                }
            },
            {
                "_id": "65006b1ecbb6cb4dd2a358f8",
                "fName": "Halle",
                "lName": "Fay",
                "location": {
                    "coordinates": [
                        80.43405403961756,
                        16.759325239054505
                    ],
                    "type": "Point"
                }
            },
            {
                "_id": "65006b1dcbb6cb4dd2a2d598",
                "fName": "Josefa",
                "lName": "McClure",
                "location": {
                    "coordinates": [
                        80.5164383053318,
                        16.721676825722298
                    ],
                    "type": "Point"
                }
            },
            {
                "_id": "65006b1ecbb6cb4dd2a324f2",
                "fName": "Santiago",
                "lName": "Torp",
                "location": {
                    "coordinates": [
                        80.57789517691626,
                        16.76867981295105
                    ],
                    "type": "Point"
                }
            },
            {
                "_id": "65006b1ecbb6cb4dd2a37974",
                "fName": "Shemar",
                "lName": "Durgan",
                "location": {
                    "coordinates": [
                        80.62214549655688,
                        16.86092806780467
                    ],
                    "type": "Point"
                }
            },
            {
                "_id": "65006b1ecbb6cb4dd2a2e7c9",
                "fName": "Sarah",
                "lName": "Walsh",
                "location": {
                    "coordinates": [
                        80.49077993539225,
                        16.981259729965885
                    ],
                    "type": "Point"
                }
            },
            {
                "_id": "65006b1ecbb6cb4dd2a31390",
                "fName": "Sarah",
                "lName": "Parisian",
                "location": {
                    "coordinates": [
                        80.50003471969094,
                        16.98066974549068
                    ],
                    "type": "Point"
                }
            },
            {
                "_id": "65006b1fcbb6cb4dd2a39974",
                "fName": "Kathryn",
                "lName": "Stracke-Marquardt",
                "location": {
                    "coordinates": [
                        80.60302764396828,
                        17.04175970085018
                    ],
                    "type": "Point"
                }
            },
            {
                "_id": "65006b1ecbb6cb4dd2a3059a",
                "fName": "Alysson",
                "lName": "Gutkowski",
                "location": {
                    "coordinates": [
                        80.63051826025203,
                        17.024646317425713
                    ],
                    "type": "Point"
                }
            },
            {
                "_id": "65006b1ecbb6cb4dd2a2e7a1",
                "fName": "Dewayne",
                "lName": "Lockman",
                "location": {
                    "coordinates": [
                        80.61838368004248,
                        16.949280516130813
                    ],
                    "type": "Point"
                }
            },
            {
                "_id": "65006b1ecbb6cb4dd2a311f9",
                "fName": "Georgianna",
                "lName": "Anderson",
                "location": {
                    "coordinates": [
                        80.61351533470538,
                        16.953600381655114
                    ],
                    "type": "Point"
                }
            },
            {
                "_id": "65006b1dcbb6cb4dd2a26b80",
                "fName": "Alfonzo",
                "lName": "O'Hara",
                "location": {
                    "coordinates": [
                        80.67204188092174,
                        16.896988736179445
                    ],
                    "type": "Point"
                }
            },
            {
                "_id": "65006b1ecbb6cb4dd2a37216",
                "fName": "Mary",
                "lName": "Armstrong",
                "location": {
                    "coordinates": [
                        80.69983772486461,
                        16.968874124430855
                    ],
                    "type": "Point"
                }
            },
            {
                "_id": "65006b1ecbb6cb4dd2a32142",
                "fName": "Garret",
                "lName": "Swift",
                "location": {
                    "coordinates": [
                        80.68498115657057,
                        17.06775268178648
                    ],
                    "type": "Point"
                }
            },
            {
                "_id": "65006b1dcbb6cb4dd2a25f27",
                "fName": "Bryana",
                "lName": "Nienow",
                "location": {
                    "coordinates": [
                        80.73431599902393,
                        17.004702118618944
                    ],
                    "type": "Point"
                }
            },
            {
                "_id": "65006b1dcbb6cb4dd2a2a46b",
                "fName": "Evan",
                "lName": "Franecki",
                "location": {
                    "coordinates": [
                        80.72398429282136,
                        17.025943233726878
                    ],
                    "type": "Point"
                }
            },
            {
                "_id": "65006b1dcbb6cb4dd2a2aeb5",
                "fName": "Adele",
                "lName": "Batz",
                "location": {
                    "coordinates": [
                        80.72787243408942,
                        17.07170231424883
                    ],
                    "type": "Point"
                }
            },
            {
                "_id": "65006b1dcbb6cb4dd2a29fd2",
                "fName": "Natasha",
                "lName": "Krajcik",
                "location": {
                    "coordinates": [
                        80.78096825938135,
                        17.045349399789714
                    ],
                    "type": "Point"
                }
            },
            {
                "_id": "65006b1dcbb6cb4dd2a29fd7",
                "fName": "Murl",
                "lName": "Muller",
                "location": {
                    "coordinates": [
                        80.80444499981199,
                        17.020638884243876
                    ],
                    "type": "Point"
                }
            },
            {
                "_id": "65006b1ecbb6cb4dd2a36972",
                "fName": "Waino",
                "lName": "Langworth",
                "location": {
                    "coordinates": [
                        80.73778059711275,
                        16.902330540455083
                    ],
                    "type": "Point"
                }
            },
            {
                "_id": "65006b1ecbb6cb4dd2a32529",
                "fName": "Julien",
                "lName": "Howe",
                "location": {
                    "coordinates": [
                        80.74735567271703,
                        16.906528682540223
                    ],
                    "type": "Point"
                }
            },
            {
                "_id": "65006b1dcbb6cb4dd2a2954c",
                "fName": "Melvin",
                "lName": "Walker",
                "location": {
                    "coordinates": [
                        80.79143808809596,
                        16.847870039096577
                    ],
                    "type": "Point"
                }
            },
            {
                "_id": "65006b1ecbb6cb4dd2a2f693",
                "fName": "Anais",
                "lName": "Zemlak",
                "location": {
                    "coordinates": [
                        80.78978230333198,
                        16.85578621457397
                    ],
                    "type": "Point"
                }
            },
            {
                "_id": "65006b1ecbb6cb4dd2a32aa0",
                "fName": "Emery",
                "lName": "Johns",
                "location": {
                    "coordinates": [
                        80.74458344288557,
                        16.799909057317155
                    ],
                    "type": "Point"
                }
            },
            {
                "_id": "65006b1ecbb6cb4dd2a349a6",
                "fName": "Torrance",
                "lName": "Toy",
                "location": {
                    "coordinates": [
                        80.76026394842913,
                        16.865971549913574
                    ],
                    "type": "Point"
                }
            },
            {
                "_id": "65006b1dcbb6cb4dd2a2524f",
                "fName": "Arielle",
                "lName": "Corkery-King",
                "location": {
                    "coordinates": [
                        80.7055934077329,
                        16.86026575251616
                    ],
                    "type": "Point"
                }
            },
            {
                "_id": "65006b1dcbb6cb4dd2a295b0",
                "fName": "Blaise",
                "lName": "Kutch",
                "location": {
                    "coordinates": [
                        80.65931900748399,
                        16.865642212641973
                    ],
                    "type": "Point"
                }
            },
            {
                "_id": "65006b1dcbb6cb4dd2a2717a",
                "fName": "Efren",
                "lName": "King",
                "location": {
                    "coordinates": [
                        80.65934010862588,
                        16.849298521855587
                    ],
                    "type": "Point"
                }
            },
            {
                "_id": "65006b1ecbb6cb4dd2a34cc8",
                "fName": "Eleazar",
                "lName": "Howell",
                "location": {
                    "coordinates": [
                        80.69052994897683,
                        16.80556541480798
                    ],
                    "type": "Point"
                }
            },
            {
                "_id": "65006b1fcbb6cb4dd2a37f94",
                "fName": "Deven",
                "lName": "Deckow",
                "location": {
                    "coordinates": [
                        80.71250350302724,
                        16.841432135895438
                    ],
                    "type": "Point"
                }
            },
            {
                "_id": "65006b1ecbb6cb4dd2a311ce",
                "fName": "Karley",
                "lName": "Dicki",
                "location": {
                    "coordinates": [
                        80.76213724146058,
                        16.77275008726516
                    ],
                    "type": "Point"
                }
            },
            {
                "_id": "65006b1dcbb6cb4dd2a2a416",
                "fName": "Isabelle",
                "lName": "Ullrich",
                "location": {
                    "coordinates": [
                        80.74899411240472,
                        16.75184602433925
                    ],
                    "type": "Point"
                }
            },
            {
                "_id": "65006b1ecbb6cb4dd2a368d8",
                "fName": "Elisa",
                "lName": "Strosin-Klocko",
                "location": {
                    "coordinates": [
                        80.7973061628143,
                        16.797723951910516
                    ],
                    "type": "Point"
                }
            },
            {
                "_id": "65006b1fcbb6cb4dd2a3805d",
                "fName": "Elinore",
                "lName": "Denesik",
                "location": {
                    "coordinates": [
                        80.74219694705256,
                        16.638850501596114
                    ],
                    "type": "Point"
                }
            },
            {
                "_id": "65006b1ecbb6cb4dd2a31090",
                "fName": "Guillermo",
                "lName": "Kihn",
                "location": {
                    "coordinates": [
                        80.73877538309051,
                        16.63169885396579
                    ],
                    "type": "Point"
                }
            },
            {
                "_id": "65006b1dcbb6cb4dd2a2896c",
                "fName": "Dave",
                "lName": "Cormier",
                "location": {
                    "coordinates": [
                        80.78139815362891,
                        16.577728085806864
                    ],
                    "type": "Point"
                }
            },
            {
                "_id": "65006b1ecbb6cb4dd2a33be8",
                "fName": "Skylar",
                "lName": "Runte",
                "location": {
                    "coordinates": [
                        80.71206172088783,
                        16.61888806204942
                    ],
                    "type": "Point"
                }
            },
            {
                "_id": "65006b1fcbb6cb4dd2a399a1",
                "fName": "Katelin",
                "lName": "Runolfsdottir",
                "location": {
                    "coordinates": [
                        80.66813958662077,
                        16.659073255051403
                    ],
                    "type": "Point"
                }
            },
            {
                "_id": "65006b1dcbb6cb4dd2a2a437",
                "fName": "Brandy",
                "lName": "O'Connell",
                "location": {
                    "coordinates": [
                        80.61065101061448,
                        16.69313279237818
                    ],
                    "type": "Point"
                }
            },
            {
                "_id": "65006b1fcbb6cb4dd2a388a3",
                "fName": "Unique",
                "lName": "Jacobson",
                "location": {
                    "coordinates": [
                        80.47660349997102,
                        16.638232087638464
                    ],
                    "type": "Point"
                }
            },
            {
                "_id": "65006b1dcbb6cb4dd2a2d34d",
                "fName": "Blake",
                "lName": "Abbott",
                "location": {
                    "coordinates": [
                        80.52632705355794,
                        16.631869430977048
                    ],
                    "type": "Point"
                }
            },
            {
                "_id": "65006b1ecbb6cb4dd2a360ab",
                "fName": "Emely",
                "lName": "Ernser",
                "location": {
                    "coordinates": [
                        80.48302038047085,
                        16.576213571075712
                    ],
                    "type": "Point"
                }
            },
            {
                "_id": "65006b1dcbb6cb4dd2a25a85",
                "fName": "Quentin",
                "lName": "Predovic",
                "location": {
                    "coordinates": [
                        80.58748934777967,
                        16.54139629555531
                    ],
                    "type": "Point"
                }
            },
            {
                "_id": "65006b1dcbb6cb4dd2a26190",
                "fName": "Parker",
                "lName": "Beatty",
                "location": {
                    "coordinates": [
                        80.54646601562004,
                        16.593843381742072
                    ],
                    "type": "Point"
                }
            },
            {
                "_id": "65006b1ecbb6cb4dd2a2fac4",
                "fName": "Conner",
                "lName": "Steuber",
                "location": {
                    "coordinates": [
                        80.56920039571551,
                        16.581789210906134
                    ],
                    "type": "Point"
                }
            },
            {
                "_id": "65006b1ecbb6cb4dd2a3704b",
                "fName": "Edd",
                "lName": "Senger",
                "location": {
                    "coordinates": [
                        80.61723167018238,
                        16.566529967714075
                    ],
                    "type": "Point"
                }
            },
            {
                "_id": "65006b1ecbb6cb4dd2a32bf2",
                "fName": "Jess",
                "lName": "Wiegand",
                "location": {
                    "coordinates": [
                        80.59308965792337,
                        16.472578231965088
                    ],
                    "type": "Point"
                }
            },
            {
                "_id": "65006b1ecbb6cb4dd2a322f8",
                "fName": "Preston",
                "lName": "Medhurst",
                "location": {
                    "coordinates": [
                        80.49078961144298,
                        16.499033786330113
                    ],
                    "type": "Point"
                }
            },
            {
                "_id": "65006b1ecbb6cb4dd2a371a7",
                "fName": "Ivy",
                "lName": "Grady",
                "location": {
                    "coordinates": [
                        80.50557361234091,
                        16.37606466308717
                    ],
                    "type": "Point"
                }
            },
            {
                "_id": "65006b1dcbb6cb4dd2a2dbf0",
                "fName": "Vicenta",
                "lName": "Kohler",
                "location": {
                    "coordinates": [
                        80.49716782830765,
                        16.381978611732393
                    ],
                    "type": "Point"
                }
            },
            {
                "_id": "65006b1ecbb6cb4dd2a36040",
                "fName": "Ariane",
                "lName": "Nolan",
                "location": {
                    "coordinates": [
                        80.46114469665176,
                        16.343467007273624
                    ],
                    "type": "Point"
                }
            },
            {
                "_id": "65006b1ecbb6cb4dd2a37256",
                "fName": "Tyshawn",
                "lName": "Cremin",
                "location": {
                    "coordinates": [
                        80.59666728691856,
                        16.388302194599717
                    ],
                    "type": "Point"
                }
            },
            {
                "_id": "65006b1ecbb6cb4dd2a2fcf3",
                "fName": "Ian",
                "lName": "Yundt",
                "location": {
                    "coordinates": [
                        80.6554852471507,
                        16.328669316127836
                    ],
                    "type": "Point"
                }
            },
            {
                "_id": "65006b1ecbb6cb4dd2a32909",
                "fName": "Katrine",
                "lName": "Botsford",
                "location": {
                    "coordinates": [
                        80.6501130304342,
                        16.394222751521333
                    ],
                    "type": "Point"
                }
            },
            {
                "_id": "65006b1dcbb6cb4dd2a2ce4c",
                "fName": "Cary",
                "lName": "Beahan",
                "location": {
                    "coordinates": [
                        80.64747146858981,
                        16.4187070414297
                    ],
                    "type": "Point"
                }
            },
            {
                "_id": "65006b1ecbb6cb4dd2a35a1d",
                "fName": "Talia",
                "lName": "Nicolas",
                "location": {
                    "coordinates": [
                        80.66573378432224,
                        16.444924236583038
                    ],
                    "type": "Point"
                }
            },
            {
                "_id": "65006b1dcbb6cb4dd2a2a720",
                "fName": "Josie",
                "lName": "Nicolas",
                "location": {
                    "coordinates": [
                        80.68171446641219,
                        16.480228810680302
                    ],
                    "type": "Point"
                }
            },
            {
                "_id": "65006b1dcbb6cb4dd2a2591f",
                "fName": "Beverly",
                "lName": "Moen",
                "location": {
                    "coordinates": [
                        80.79872337810477,
                        16.42305538783078
                    ],
                    "type": "Point"
                }
            },
            {
                "_id": "65006b1dcbb6cb4dd2a29078",
                "fName": "Randal",
                "lName": "Heller",
                "location": {
                    "coordinates": [
                        80.91131216201954,
                        16.36669616514115
                    ],
                    "type": "Point"
                }
            },
            {
                "_id": "65006b1ecbb6cb4dd2a32a73",
                "fName": "Tessie",
                "lName": "Kuvalis",
                "location": {
                    "coordinates": [
                        80.96371851626581,
                        16.340917345091302
                    ],
                    "type": "Point"
                }
            },
            {
                "_id": "65006b1ecbb6cb4dd2a30050",
                "fName": "Lonzo",
                "lName": "Tromp",
                "location": {
                    "coordinates": [
                        80.90524816460578,
                        16.476932031819402
                    ],
                    "type": "Point"
                }
            },
            {
                "_id": "65006b1ecbb6cb4dd2a343c1",
                "fName": "Kacey",
                "lName": "Dickens",
                "location": {
                    "coordinates": [
                        80.92338546179103,
                        16.51677705418816
                    ],
                    "type": "Point"
                }
            },
            {
                "_id": "65006b1ecbb6cb4dd2a3042e",
                "fName": "Lyric",
                "lName": "Bahringer",
                "location": {
                    "coordinates": [
                        80.87381523571516,
                        16.496937291641757
                    ],
                    "type": "Point"
                }
            },
            {
                "_id": "65006b1dcbb6cb4dd2a2c593",
                "fName": "Eudora",
                "lName": "Moore",
                "location": {
                    "coordinates": [
                        80.8354855819035,
                        16.428677226102003
                    ],
                    "type": "Point"
                }
            },
            {
                "_id": "65006b1fcbb6cb4dd2a39751",
                "fName": "Lambert",
                "lName": "Lockman",
                "location": {
                    "coordinates": [
                        80.8238723042613,
                        16.437686643858278
                    ],
                    "type": "Point"
                }
            },
            {
                "_id": "65006b1dcbb6cb4dd2a2506c",
                "fName": "Kendrick",
                "lName": "Dooley",
                "location": {
                    "coordinates": [
                        80.82247813785875,
                        16.463752095204946
                    ],
                    "type": "Point"
                }
            },
            {
                "_id": "65006b1ecbb6cb4dd2a31aba",
                "fName": "Leonel",
                "lName": "King",
                "location": {
                    "coordinates": [
                        80.84829458588054,
                        16.568160872794085
                    ],
                    "type": "Point"
                }
            },
            {
                "_id": "65006b1ecbb6cb4dd2a2fffd",
                "fName": "Shanna",
                "lName": "Thompson",
                "location": {
                    "coordinates": [
                        80.85920043520754,
                        16.5415835664733
                    ],
                    "type": "Point"
                }
            },
            {
                "_id": "65006b1dcbb6cb4dd2a2aa88",
                "fName": "Eldridge",
                "lName": "Torphy",
                "location": {
                    "coordinates": [
                        80.88403644872116,
                        16.52698478509158
                    ],
                    "type": "Point"
                }
            },
            {
                "_id": "65006b1dcbb6cb4dd2a28f22",
                "fName": "Reymundo",
                "lName": "Farrell",
                "location": {
                    "coordinates": [
                        80.81599705104377,
                        16.685234029788695
                    ],
                    "type": "Point"
                }
            },
            {
                "_id": "65006b1dcbb6cb4dd2a2a97e",
                "fName": "Dewayne",
                "lName": "Green",
                "location": {
                    "coordinates": [
                        80.84067968466425,
                        16.682841160442713
                    ],
                    "type": "Point"
                }
            },
            {
                "_id": "65006b1ecbb6cb4dd2a3781e",
                "fName": "Roosevelt",
                "lName": "Corwin",
                "location": {
                    "coordinates": [
                        80.88978236965009,
                        16.6670912403414
                    ],
                    "type": "Point"
                }
            },
            {
                "_id": "65006b1dcbb6cb4dd2a2a6c6",
                "fName": "Joesph",
                "lName": "Zboncak",
                "location": {
                    "coordinates": [
                        80.90276585291939,
                        16.68749243193166
                    ],
                    "type": "Point"
                }
            },
            {
                "_id": "65006b1dcbb6cb4dd2a2734d",
                "fName": "Zena",
                "lName": "Hirthe",
                "location": {
                    "coordinates": [
                        80.92036259630184,
                        16.613506725618738
                    ],
                    "type": "Point"
                }
            },
            {
                "_id": "65006b1dcbb6cb4dd2a27e83",
                "fName": "Jayce",
                "lName": "Oberbrunner",
                "location": {
                    "coordinates": [
                        80.914826064158,
                        16.58203567283043
                    ],
                    "type": "Point"
                }
            },
            {
                "_id": "65006b1dcbb6cb4dd2a2d04c",
                "fName": "Veda",
                "lName": "Shanahan",
                "location": {
                    "coordinates": [
                        80.90047941556806,
                        16.525217468561067
                    ],
                    "type": "Point"
                }
            },
            {
                "_id": "65006b1fcbb6cb4dd2a37e16",
                "fName": "Diamond",
                "lName": "Durgan",
                "location": {
                    "coordinates": [
                        81.05873758716953,
                        16.588258834279024
                    ],
                    "type": "Point"
                }
            },
            {
                "_id": "65006b1dcbb6cb4dd2a271df",
                "fName": "Keon",
                "lName": "Reynolds",
                "location": {
                    "coordinates": [
                        81.0297662028542,
                        16.690385811004994
                    ],
                    "type": "Point"
                }
            },
            {
                "_id": "65006b1ecbb6cb4dd2a31b72",
                "fName": "Dusty",
                "lName": "Dicki",
                "location": {
                    "coordinates": [
                        81.03987704823302,
                        16.691655505156355
                    ],
                    "type": "Point"
                }
            },
            {
                "_id": "65006b1dcbb6cb4dd2a25d8c",
                "fName": "Bette",
                "lName": "Berge",
                "location": {
                    "coordinates": [
                        81.05255661798837,
                        16.65812833505558
                    ],
                    "type": "Point"
                }
            },
            {
                "_id": "65006b1ecbb6cb4dd2a32e67",
                "fName": "Leon",
                "lName": "Bradtke",
                "location": {
                    "coordinates": [
                        81.1291010951062,
                        16.573322089463076
                    ],
                    "type": "Point"
                }
            },
            {
                "_id": "65006b1ecbb6cb4dd2a33ab2",
                "fName": "Raymundo",
                "lName": "Hand",
                "location": {
                    "coordinates": [
                        81.11219676684786,
                        16.47782643512119
                    ],
                    "type": "Point"
                }
            },
            {
                "_id": "65006b1ecbb6cb4dd2a30f7f",
                "fName": "Benjamin",
                "lName": "Monahan",
                "location": {
                    "coordinates": [
                        81.07537638845326,
                        16.52539809199049
                    ],
                    "type": "Point"
                }
            },
            {
                "_id": "65006b1ecbb6cb4dd2a36a48",
                "fName": "Mohammad",
                "lName": "Beer",
                "location": {
                    "coordinates": [
                        81.01143956158894,
                        16.493061503067352
                    ],
                    "type": "Point"
                }
            },
            {
                "_id": "65006b1dcbb6cb4dd2a25302",
                "fName": "German",
                "lName": "Wintheiser-Johns",
                "location": {
                    "coordinates": [
                        81.0416046126336,
                        16.435863143446966
                    ],
                    "type": "Point"
                }
            },
            {
                "_id": "65006b1dcbb6cb4dd2a2be26",
                "fName": "Abel",
                "lName": "Wolf",
                "location": {
                    "coordinates": [
                        81.01816207885207,
                        16.394467060423715
                    ],
                    "type": "Point"
                }
            },
            {
                "_id": "65006b1dcbb6cb4dd2a27ff5",
                "fName": "Gene",
                "lName": "Lakin",
                "location": {
                    "coordinates": [
                        81.08761655523818,
                        16.3792494392589
                    ],
                    "type": "Point"
                }
            },
            {
                "_id": "65006b1ecbb6cb4dd2a33742",
                "fName": "Cruz",
                "lName": "Cartwright",
                "location": {
                    "coordinates": [
                        81.15719157675758,
                        16.392811020297266
                    ],
                    "type": "Point"
                }
            },
            {
                "_id": "65006b1dcbb6cb4dd2a2641a",
                "fName": "Trudie",
                "lName": "Powlowski",
                "location": {
                    "coordinates": [
                        81.16407145565164,
                        16.351392350404282
                    ],
                    "type": "Point"
                }
            },
            {
                "_id": "65006b1fcbb6cb4dd2a38d25",
                "fName": "Troy",
                "lName": "Bartell",
                "location": {
                    "coordinates": [
                        81.19073004754817,
                        16.380971107896496
                    ],
                    "type": "Point"
                }
            },
            {
                "_id": "65006b1dcbb6cb4dd2a2af62",
                "fName": "Idell",
                "lName": "Pagac",
                "location": {
                    "coordinates": [
                        81.23552057380115,
                        16.358818629048898
                    ],
                    "type": "Point"
                }
            },
            {
                "_id": "65006b1ecbb6cb4dd2a31dab",
                "fName": "Finn",
                "lName": "Kihn",
                "location": {
                    "coordinates": [
                        81.22764695650903,
                        16.38091650482683
                    ],
                    "type": "Point"
                }
            },
            {
                "_id": "65006b1ecbb6cb4dd2a2ea01",
                "fName": "Abbey",
                "lName": "Kulas",
                "location": {
                    "coordinates": [
                        81.18640527832893,
                        16.524346523154495
                    ],
                    "type": "Point"
                }
            },
            {
                "_id": "65006b1dcbb6cb4dd2a2c841",
                "fName": "Violet",
                "lName": "Nader",
                "location": {
                    "coordinates": [
                        81.27024353907458,
                        16.48097453897929
                    ],
                    "type": "Point"
                }
            },
            {
                "_id": "65006b1dcbb6cb4dd2a2e199",
                "fName": "Devyn",
                "lName": "Runolfsson",
                "location": {
                    "coordinates": [
                        81.30505018380998,
                        16.530193671809585
                    ],
                    "type": "Point"
                }
            },
            {
                "_id": "65006b1fcbb6cb4dd2a38677",
                "fName": "Ernest",
                "lName": "Feest",
                "location": {
                    "coordinates": [
                        81.28973804036495,
                        16.433971235358662
                    ],
                    "type": "Point"
                }
            },
            {
                "_id": "65006b1dcbb6cb4dd2a29228",
                "fName": "Elian",
                "lName": "Bednar",
                "location": {
                    "coordinates": [
                        81.29617407275083,
                        16.35504446539887
                    ],
                    "type": "Point"
                }
            },
            {
                "_id": "65006b1fcbb6cb4dd2a399c3",
                "fName": "Euna",
                "lName": "Mohr",
                "location": {
                    "coordinates": [
                        81.33931709897644,
                        16.40261344607417
                    ],
                    "type": "Point"
                }
            },
            {
                "_id": "65006b1dcbb6cb4dd2a268b1",
                "fName": "Francis",
                "lName": "Erdman",
                "location": {
                    "coordinates": [
                        81.50397478690573,
                        16.415534283810214
                    ],
                    "type": "Point"
                }
            },
            {
                "_id": "65006b1dcbb6cb4dd2a270a3",
                "fName": "Lauren",
                "lName": "Barrows",
                "location": {
                    "coordinates": [
                        81.45415138069644,
                        16.43900367263477
                    ],
                    "type": "Point"
                }
            },
            {
                "_id": "65006b1ecbb6cb4dd2a366db",
                "fName": "Brooke",
                "lName": "Leuschke",
                "location": {
                    "coordinates": [
                        81.35921617496568,
                        16.600659502759974
                    ],
                    "type": "Point"
                }
            },
            {
                "_id": "65006b1dcbb6cb4dd2a27844",
                "fName": "Wilhelm",
                "lName": "Hane",
                "location": {
                    "coordinates": [
                        81.41373325183639,
                        16.599691537923423
                    ],
                    "type": "Point"
                }
            },
            {
                "_id": "65006b1ecbb6cb4dd2a33a9b",
                "fName": "Justice",
                "lName": "Brown",
                "location": {
                    "coordinates": [
                        81.47323242876837,
                        16.616451633435474
                    ],
                    "type": "Point"
                }
            },
            {
                "_id": "65006b1dcbb6cb4dd2a2937a",
                "fName": "Rory",
                "lName": "McCullough",
                "location": {
                    "coordinates": [
                        81.45253566284954,
                        16.66823935901431
                    ],
                    "type": "Point"
                }
            },
            {
                "_id": "65006b1ecbb6cb4dd2a343ba",
                "fName": "Jackson",
                "lName": "Runolfsson",
                "location": {
                    "coordinates": [
                        81.43361941681349,
                        16.701523121772357
                    ],
                    "type": "Point"
                }
            },
            {
                "_id": "65006b1ecbb6cb4dd2a345c9",
                "fName": "Adriana",
                "lName": "Douglas",
                "location": {
                    "coordinates": [
                        81.35977872601929,
                        16.65035214281988
                    ],
                    "type": "Point"
                }
            },
            {
                "_id": "65006b1dcbb6cb4dd2a26a8e",
                "fName": "Kelli",
                "lName": "Rogahn",
                "location": {
                    "coordinates": [
                        81.2985515741901,
                        16.709653515479403
                    ],
                    "type": "Point"
                }
            },
            {
                "_id": "65006b1dcbb6cb4dd2a2a6c8",
                "fName": "Royce",
                "lName": "Wehner",
                "location": {
                    "coordinates": [
                        81.31918459279312,
                        16.589945388455888
                    ],
                    "type": "Point"
                }
            },
            {
                "_id": "65006b1ecbb6cb4dd2a32305",
                "fName": "Anya",
                "lName": "Hegmann",
                "location": {
                    "coordinates": [
                        81.19837995316331,
                        16.61389845257825
                    ],
                    "type": "Point"
                }
            },
            {
                "_id": "65006b1dcbb6cb4dd2a2883d",
                "fName": "Freeman",
                "lName": "Fahey",
                "location": {
                    "coordinates": [
                        81.24635413602601,
                        16.77911794462512
                    ],
                    "type": "Point"
                }
            },
            {
                "_id": "65006b1ecbb6cb4dd2a33b4c",
                "fName": "Justine",
                "lName": "Konopelski",
                "location": {
                    "coordinates": [
                        81.24938218409964,
                        16.807952934508606
                    ],
                    "type": "Point"
                }
            },
            {
                "_id": "65006b1ecbb6cb4dd2a35bab",
                "fName": "Caleb",
                "lName": "Ullrich",
                "location": {
                    "coordinates": [
                        81.19946902947487,
                        16.846039731209665
                    ],
                    "type": "Point"
                }
            },
            {
                "_id": "65006b1dcbb6cb4dd2a29828",
                "fName": "Adonis",
                "lName": "Hane",
                "location": {
                    "coordinates": [
                        81.18153110734008,
                        16.875233244332357
                    ],
                    "type": "Point"
                }
            },
            {
                "_id": "65006b1dcbb6cb4dd2a285d4",
                "fName": "Abigale",
                "lName": "Oberbrunner",
                "location": {
                    "coordinates": [
                        81.23011377769977,
                        16.876892731234477
                    ],
                    "type": "Point"
                }
            },
            {
                "_id": "65006b1ecbb6cb4dd2a371d0",
                "fName": "Clarissa",
                "lName": "Schuster",
                "location": {
                    "coordinates": [
                        81.22550388996135,
                        16.831049467982446
                    ],
                    "type": "Point"
                }
            },
            {
                "_id": "65006b1ecbb6cb4dd2a34bc7",
                "fName": "Destany",
                "lName": "Kirlin",
                "location": {
                    "coordinates": [
                        81.2569039574287,
                        16.86726084744492
                    ],
                    "type": "Point"
                }
            },
            {
                "_id": "65006b1dcbb6cb4dd2a25026",
                "fName": "Isaiah",
                "lName": "Johns",
                "location": {
                    "coordinates": [
                        81.2686997871535,
                        16.887332269848237
                    ],
                    "type": "Point"
                }
            },
            {
                "_id": "65006b1dcbb6cb4dd2a2dcb1",
                "fName": "Kody",
                "lName": "Wolff",
                "location": {
                    "coordinates": [
                        81.26526907404615,
                        16.906878915162867
                    ],
                    "type": "Point"
                }
            },
            {
                "_id": "65006b1ecbb6cb4dd2a33e9b",
                "fName": "Sonya",
                "lName": "Toy",
                "location": {
                    "coordinates": [
                        81.29767813903815,
                        16.881072081715633
                    ],
                    "type": "Point"
                }
            },
            {
                "_id": "65006b1dcbb6cb4dd2a27ba1",
                "fName": "Rubye",
                "lName": "Champlin",
                "location": {
                    "coordinates": [
                        81.31841902091698,
                        16.892863142441115
                    ],
                    "type": "Point"
                }
            },
            {
                "_id": "65006b1ecbb6cb4dd2a2f88b",
                "fName": "Ernestine",
                "lName": "Nicolas",
                "location": {
                    "coordinates": [
                        81.30176309927498,
                        16.8643665918596
                    ],
                    "type": "Point"
                }
            },
            {
                "_id": "65006b1ecbb6cb4dd2a3757b",
                "fName": "Stella",
                "lName": "Orn",
                "location": {
                    "coordinates": [
                        81.2605924467312,
                        16.737542805724217
                    ],
                    "type": "Point"
                }
            },
            {
                "_id": "65006b1dcbb6cb4dd2a2a9dc",
                "fName": "Marcelina",
                "lName": "Kautzer",
                "location": {
                    "coordinates": [
                        81.34619924060698,
                        16.745059014503646
                    ],
                    "type": "Point"
                }
            },
            {
                "_id": "65006b1ecbb6cb4dd2a33d91",
                "fName": "Aiden",
                "lName": "Runte",
                "location": {
                    "coordinates": [
                        81.39315744485091,
                        16.815931571747974
                    ],
                    "type": "Point"
                }
            },
            {
                "_id": "65006b1fcbb6cb4dd2a39496",
                "fName": "Clement",
                "lName": "Willms",
                "location": {
                    "coordinates": [
                        81.4848660041821,
                        16.740531446279114
                    ],
                    "type": "Point"
                }
            },
            {
                "_id": "65006b1dcbb6cb4dd2a2d95c",
                "fName": "Anibal",
                "lName": "Schmidt",
                "location": {
                    "coordinates": [
                        81.50425618465384,
                        16.82942795654774
                    ],
                    "type": "Point"
                }
            },
            {
                "_id": "65006b1ecbb6cb4dd2a33e22",
                "fName": "Shyanne",
                "lName": "Braun",
                "location": {
                    "coordinates": [
                        81.45658596996579,
                        16.785088297164087
                    ],
                    "type": "Point"
                }
            },
            {
                "_id": "65006b1dcbb6cb4dd2a26f5a",
                "fName": "Teagan",
                "lName": "Morar",
                "location": {
                    "coordinates": [
                        81.37852677513177,
                        16.837742283790043
                    ],
                    "type": "Point"
                }
            },
            {
                "_id": "65006b1ecbb6cb4dd2a33d9c",
                "fName": "Liam",
                "lName": "Waters",
                "location": {
                    "coordinates": [
                        81.35169592198692,
                        16.93797237267323
                    ],
                    "type": "Point"
                }
            },
            {
                "_id": "65006b1ecbb6cb4dd2a314b2",
                "fName": "Josefina",
                "lName": "Kulas",
                "location": {
                    "coordinates": [
                        81.34380040476665,
                        16.962484209220257
                    ],
                    "type": "Point"
                }
            },
            {
                "_id": "65006b1ecbb6cb4dd2a31f03",
                "fName": "Rene",
                "lName": "Ledner",
                "location": {
                    "coordinates": [
                        81.40044450038822,
                        16.97498461846471
                    ],
                    "type": "Point"
                }
            },
            {
                "_id": "65006b1dcbb6cb4dd2a25ea6",
                "fName": "Nicolas",
                "lName": "Erdman-Kertzmann",
                "location": {
                    "coordinates": [
                        81.45035088415854,
                        16.992510031747614
                    ],
                    "type": "Point"
                }
            },
            {
                "_id": "65006b1ecbb6cb4dd2a32966",
                "fName": "Hassan",
                "lName": "Mohr",
                "location": {
                    "coordinates": [
                        81.46125149085788,
                        16.977049368149174
                    ],
                    "type": "Point"
                }
            },
            {
                "_id": "65006b1fcbb6cb4dd2a37c6d",
                "fName": "Albert",
                "lName": "Padberg",
                "location": {
                    "coordinates": [
                        81.4555101968705,
                        16.970953168263932
                    ],
                    "type": "Point"
                }
            },
            {
                "_id": "65006b1dcbb6cb4dd2a2b52e",
                "fName": "Salma",
                "lName": "Barrows",
                "location": {
                    "coordinates": [
                        81.45633676850532,
                        17.060197501926215
                    ],
                    "type": "Point"
                }
            },
            {
                "_id": "65006b1dcbb6cb4dd2a2cac5",
                "fName": "Emery",
                "lName": "O'Reilly",
                "location": {
                    "coordinates": [
                        81.47980305317812,
                        17.05775314333322
                    ],
                    "type": "Point"
                }
            },
            {
                "_id": "65006b1ecbb6cb4dd2a2e769",
                "fName": "Landen",
                "lName": "Funk",
                "location": {
                    "coordinates": [
                        81.41044894564646,
                        17.104490252391308
                    ],
                    "type": "Point"
                }
            },
            {
                "_id": "65006b1ecbb6cb4dd2a37046",
                "fName": "Florence",
                "lName": "McDermott",
                "location": {
                    "coordinates": [
                        81.35169813541235,
                        17.04256368715601
                    ],
                    "type": "Point"
                }
            },
            {
                "_id": "65006b1ecbb6cb4dd2a3794b",
                "fName": "Justine",
                "lName": "Treutel",
                "location": {
                    "coordinates": [
                        81.30988926644578,
                        17.069234519393458
                    ],
                    "type": "Point"
                }
            },
            {
                "_id": "65006b1fcbb6cb4dd2a395eb",
                "fName": "Fern",
                "lName": "Hartmann",
                "location": {
                    "coordinates": [
                        81.27118843092663,
                        17.09695198873607
                    ],
                    "type": "Point"
                }
            },
            {
                "_id": "65006b1ecbb6cb4dd2a34083",
                "fName": "Emery",
                "lName": "Oberbrunner",
                "location": {
                    "coordinates": [
                        81.26654832080749,
                        17.090990998210437
                    ],
                    "type": "Point"
                }
            },
            {
                "_id": "65006b1ecbb6cb4dd2a34395",
                "fName": "Damian",
                "lName": "Franecki-Block",
                "location": {
                    "coordinates": [
                        81.25781543653125,
                        17.039497914939137
                    ],
                    "type": "Point"
                }
            },
            {
                "_id": "65006b1ecbb6cb4dd2a33802",
                "fName": "Dane",
                "lName": "Toy",
                "location": {
                    "coordinates": [
                        81.33182023401432,
                        17.04292137937111
                    ],
                    "type": "Point"
                }
            },
            {
                "_id": "65006b1fcbb6cb4dd2a39fa9",
                "fName": "Jayde",
                "lName": "Farrell",
                "location": {
                    "coordinates": [
                        81.26862897698695,
                        16.920517259392298
                    ],
                    "type": "Point"
                }
            },
            {
                "_id": "65006b1ecbb6cb4dd2a2e728",
                "fName": "Allison",
                "lName": "Schiller",
                "location": {
                    "coordinates": [
                        81.21880834720027,
                        16.96007299686831
                    ],
                    "type": "Point"
                }
            },